[
  { "_id":1,"name": "Jos Cleaning Services", "title": "Home Cleaning", "lat": 9.8965, "long": 8.8583 },
  { "_id":2,"name": "Plateau Plumbing Co.", "title": "Plumbing", "lat": 9.8980, "long": 8.8570 },
  { "_id":3,"name": "Jos Electricians", "title": "Electrical Services", "lat": 9.8972, "long": 8.8605 },
  { "_id":4,"name": "Jos Lawn Care", "title": "Gardening & Landscaping", "lat": 9.8995, "long": 8.8621 },
  { "_id":5,"name": "Jos Home Repairs", "title": "Handyman Services", "lat": 9.8951, "long": 8.8599 },
  { "_id":6,"name": "Plateau Movers", "title": "Moving & Delivery", "lat": 9.9002, "long": 8.8612 },
  { "_id":7,"name": "Jos Tutors", "title": "Private Tutoring", "lat": 9.8978, "long": 8.8565 },
  { "_id":8,"name": "Jos Catering", "title": "Food & Catering", "lat": 9.8968, "long": 8.8589 },
  { "_id":9,"name": "Jos Car Wash", "title": "Automobile Services", "lat": 9.8985, "long": 8.8578 },
  { "_id":10,"name": "Jos Fitness", "title": "Personal Training", "lat": 9.8990, "long": 8.8590 },
  { "_id":11,"name": "Jos Event Planners", "title": "Event Planning", "lat": 9.8963, "long": 8.8600 },
  { "_id":12,"name": "Jos Tailors", "title": "Tailoring & Alterations", "lat": 9.8970, "long": 8.8615 },
  { "_id":13,"name": "Jos Tech Support", "title": "IT & Tech Services", "lat": 9.8982, "long": 8.8582 },
  { "_id":14,"name": "Plateau Pest Control", "title": "Pest Control Services", "lat": 9.8955, "long": 8.8575 },
  { "_id":15,"name": "Jos Delivery Express", "title": "Courier & Delivery", "lat": 9.8998, "long": 8.8608 }
]
